City_ID,City,Lat,Lng,Max Temp,Humidity,Cloudiness,Wind Speed,Country,Date
0,nadi,-17.8,177.4167,30.0,84,75,4.12,FJ,1707182807
1,nouadhibou,20.931,-17.0347,21.99,33,0,6.69,MR,1707182885
2,nemuro,43.3236,145.575,-7.0,70,69,5.15,JP,1707182885
3,whitehorse,60.7161,-135.0538,-19.57,92,100,1.54,CA,1707182778
4,fale old settlement,-9.3852,-171.2468,28.69,81,100,12.46,TK,1707182886
5,atafu village,-8.5421,-172.5159,28.1,82,100,13.81,TK,1707182886
6,sao vicente,-23.9631,-46.3919,28.48,26,14,1.34,BR,1707182887
7,avarua,-21.2078,-159.775,30.03,74,20,8.23,CK,1707182840
8,port-aux-francais,-49.35,70.2167,6.17,74,100,12.83,TF,1707182887
9,hadibu,12.65,54.0333,24.06,76,3,2.52,YE,1707182888
10,kapa'a,22.0752,-159.319,25.99,67,100,9.26,US,1707182748
11,edinburgh of the seven seas,-37.0676,-12.3116,15.6,62,0,0.91,SH,1707182888
12,tikhvin,59.6451,33.5294,-8.51,96,100,0.59,RU,1707182889
13,kodiak,57.79,-152.4072,2.73,75,0,8.23,US,1707182738
14,georgetown,5.4112,100.3354,27.96,81,20,1.54,MY,1707182640
15,kaluga,54.5,35.5,-7.18,95,91,4.68,RU,1707182728
16,waitangi,-43.9535,-176.5597,19.34,86,90,8.22,NZ,1707182890
17,fort bragg,35.139,-79.006,9.75,49,0,2.57,US,1707182891
18,invercargill,-46.4,168.35,18.34,93,100,1.34,NZ,1707182892
19,isafjordur,66.0755,-23.124,-8.48,77,99,5.4,IS,1707182893
20,wamba,8.9333,8.6,21.65,22,100,1.76,NG,1707182893
21,bethel,41.3712,-73.414,1.17,48,0,2.57,US,1707182894
22,puerto ayora,-0.7393,-90.3518,25.86,95,73,0.45,EC,1707182894
23,blackmans bay,-43.0167,147.3167,19.29,41,79,1.34,AU,1707182894
24,yellowknife,62.456,-114.3525,-26.36,76,20,1.54,CA,1707182895
25,miquelon,47.0975,-56.3814,2.0,93,100,12.2,PM,1707182895
26,flying fish cove,-10.4217,105.6791,25.82,94,92,1.54,CX,1707182896
27,ribeira grande,38.5167,-28.7,17.1,92,100,4.92,PT,1707182896
28,albany,42.6001,-73.9662,-1.47,50,1,2.82,US,1707182640
29,gamba,-2.65,10.0,24.67,85,100,2.03,GA,1707182897
30,adamstown,-25.066,-130.1015,24.26,81,100,5.07,PN,1707182897
31,iqaluit,63.7506,-68.5145,-16.15,77,75,0.0,CA,1707182897
32,puerto natales,-51.7236,-72.4875,9.22,75,100,0.7,CL,1707182898
33,shache,38.4167,77.2406,-3.45,82,100,0.95,CN,1707182898
34,selma,36.5708,-119.6121,14.03,91,75,0.0,US,1707182899
35,grytviken,-54.2811,-36.5092,6.07,84,20,7.32,GS,1707182899
36,papatowai,-46.5619,169.4708,17.55,80,100,2.59,NZ,1707182900
37,hawaiian paradise park,19.5933,-154.9731,23.82,68,75,2.06,US,1707182900
38,bogale,16.2833,95.4,20.24,76,0,2.12,MM,1707182901
39,nioki,-2.7167,17.6833,21.3,96,100,1.08,CD,1707182901
40,kaoma,-14.7833,24.8,20.09,81,98,0.58,ZM,1707182902
41,lihue,21.9789,-159.3672,25.58,67,100,9.26,US,1707182788
42,tsiombe,-25.3,45.4833,22.2,93,15,2.75,MG,1707182902
43,tiksi,71.6872,128.8694,-31.95,97,97,1.56,RU,1707182903
44,puerto cabezas,14.0351,-83.3888,24.16,82,62,6.41,NI,1707182903
45,cooma,-36.2333,149.1333,13.24,88,100,3.55,AU,1707182903
46,arraial do cabo,-22.9661,-42.0278,24.98,88,40,2.06,BR,1707182904
47,puerto baquerizo moreno,-0.9,-89.6,25.39,82,52,4.53,EC,1707182904
48,lospalos,-8.5186,127.0025,26.56,77,99,1.54,TL,1707182779
49,ust-nera,64.5667,143.2,-26.37,84,98,0.76,RU,1707182905
50,newman,37.3138,-121.0208,13.99,80,99,0.89,US,1707182905
51,nuuk,64.1835,-51.7216,-12.66,78,100,5.14,GL,1707182906
52,mana,5.6592,-53.7767,26.23,86,60,4.71,GF,1707182906
53,karratha,-20.7377,116.8463,30.39,49,98,3.39,AU,1707182906
54,letlhakeng,-24.0944,25.0298,26.39,33,79,0.92,BW,1707182907
55,staryy dobrotvir,50.2315,24.377,7.33,86,100,9.38,UA,1707182907
56,hammerfest,70.6634,23.6821,-10.75,85,88,0.51,NO,1707182907
57,minas de marcona,-15.2119,-75.1103,20.19,83,81,3.57,PE,1707182908
58,oamaru,-45.0784,170.9801,22.99,62,100,0.39,NZ,1707182908
59,aioun,16.6614,-9.6149,20.56,9,2,5.78,MR,1707182908
60,kone,-21.0595,164.8658,27.19,87,100,2.67,NC,1707182909
61,thief river falls,48.1191,-96.1812,0.53,100,100,4.63,US,1707182909
62,margaret river,-33.95,115.0667,19.29,50,8,3.38,AU,1707182783
63,bilibino,68.0546,166.4372,-33.19,99,100,0.87,RU,1707182910
64,wailua homesteads,22.0669,-159.378,25.24,68,100,9.26,US,1707182910
65,punta arenas,-53.15,-70.9167,12.06,54,75,9.77,CL,1707182910
66,coquimbo,-29.9533,-71.3436,18.85,88,0,2.57,CL,1707182911
67,badger,64.8,-147.5333,-14.61,79,40,0.0,US,1707182911
68,guerrero negro,27.9769,-114.0611,17.31,63,23,4.47,MX,1707182911
69,thompson,55.7435,-97.8558,-2.91,100,100,4.12,CA,1707182912
70,bardai,11.65,7.2333,16.68,17,11,6.42,NG,1707182912
71,el nido,11.1858,119.3956,27.58,71,27,3.41,PH,1707182912
72,college,64.8569,-147.8028,-14.56,78,40,0.0,US,1707182913
73,west island,-12.1568,96.8225,28.99,79,59,4.63,CC,1707182913
74,malango,-2.9627,119.9001,24.83,73,93,0.84,ID,1707182913
75,namie,37.4833,141.0,3.73,86,100,4.72,JP,1707182914
76,callao,-12.0667,-77.15,27.16,65,40,5.14,PE,1707182914
77,weyburn,49.6668,-103.8511,0.12,100,100,0.51,CA,1707182624
78,tura,25.5198,90.2201,14.39,61,82,1.18,IN,1707182915
79,ploudalmezeau,48.5333,-4.65,11.82,87,100,8.23,FR,1707182915
80,port elizabeth,-33.918,25.5701,22.28,93,75,2.57,ZA,1707182916
81,ebon,4.582,168.6964,28.26,74,34,6.49,MH,1707182916
82,st. john's,47.5649,-52.7093,1.55,97,100,8.94,CA,1707182661
83,mount gambier,-37.8333,140.7667,19.82,39,0,4.03,AU,1707182917
84,aykhal,66.0,111.5,-20.82,99,100,2.6,RU,1707182917
85,ushuaia,-54.8,-68.3,9.81,62,0,5.66,AR,1707182703
86,longyearbyen,78.2186,15.6401,-5.09,68,40,8.75,SJ,1707182918
87,belmonte,-15.8631,-38.8828,25.61,87,14,2.54,BR,1707182918
88,vila velha,-20.3297,-40.2925,26.97,91,40,3.6,BR,1707182918
89,kruisfontein,-34.0033,24.7314,21.05,90,50,4.1,ZA,1707182919
90,tsentoroy,43.0064,46.2231,1.29,57,100,3.61,RU,1707182919
91,east london,-33.0153,27.9116,22.48,84,6,1.95,ZA,1707182919
92,holualoa,19.6228,-155.9522,23.91,80,100,5.66,US,1707182920
93,ancud,-41.8697,-73.8203,14.47,93,100,2.79,CL,1707182920
94,naze,28.3667,129.4833,16.51,63,4,5.31,JP,1707182920
95,uchiza,-8.4592,-76.4633,23.23,85,9,1.61,PE,1707182921
96,mingoyo,-10.1,39.6333,23.9,97,100,1.08,TZ,1707182922
97,al kharj,24.155,47.3346,14.32,43,100,2.04,SA,1707182922
98,petrodvorets,59.885,29.8958,-4.01,97,100,1.64,RU,1707182922
99,quellon,-43.1167,-73.6167,13.7,88,100,0.28,CL,1707182923
100,kalia,23.0396,89.6328,17.22,68,0,1.84,BD,1707182923
101,asau,46.4333,26.4,9.6,75,55,8.35,RO,1707182923
102,lompoc,34.6391,-120.4579,14.32,85,100,2.57,US,1707182924
103,happy valley-goose bay,53.3168,-60.3315,-12.83,78,75,4.12,CA,1707182925
104,dakhla,23.6848,-15.958,19.8,41,86,6.39,EH,1707182925
105,uturoa,-16.7333,-151.4333,27.12,87,100,4.68,PF,1707182925
106,selfoss,63.9331,-20.9971,-13.73,87,4,4.23,IS,1707182926
107,chios,38.3678,26.1358,14.67,78,0,4.43,GR,1707182926
108,frenchville,-23.3442,150.5507,31.52,51,40,3.09,AU,1707182927
109,carnarvon,-24.8667,113.6333,30.49,30,8,10.99,AU,1707182927
110,chapaev,50.2,51.1667,0.59,97,100,7.3,KZ,1707182927
111,cumana,10.4635,-64.1775,27.11,75,97,2.25,VE,1707182928
112,sriramnagar,17.2665,78.2554,20.29,83,0,2.06,IN,1707182928
113,balaguer,41.7912,0.8109,4.82,68,100,0.87,ES,1707182929
114,utrik,11.2278,169.8474,26.41,82,38,8.94,MH,1707182929
115,qaqortoq,60.7167,-46.0333,-21.38,70,0,2.79,GL,1707182929
116,ostersund,63.1792,14.6357,-7.75,100,100,1.54,SE,1707182930
117,birjand,32.8663,59.2211,-2.74,33,0,3.09,IR,1707182930
118,aral,40.5156,81.2636,-3.28,60,19,0.2,CN,1707182930
119,uribia,11.7139,-72.266,26.54,83,55,3.27,CO,1707182931
120,priargunsk,50.3691,119.1012,-30.03,99,42,0.53,RU,1707182931
121,al marj,32.488,20.8317,10.29,92,7,3.59,LY,1707182932
122,kingston,17.997,-76.7936,26.23,96,100,3.09,JM,1707182661
123,al jawf,29.5,38.75,7.63,58,0,3.88,SA,1707182932
124,gizo,-8.103,156.8419,28.93,78,63,6.47,SB,1707182932
125,enewetak,11.3474,162.3373,26.64,72,98,7.14,MH,1707182933
126,ilulissat,69.2167,-51.1,-21.99,54,10,2.57,GL,1707182933
127,labrador city,52.9463,-66.9114,-23.23,70,0,0.0,CA,1707182934
128,caister-on-sea,52.6481,1.7265,11.32,71,100,11.8,GB,1707182934
129,tazovsky,67.4667,78.7,-24.32,100,98,4.6,RU,1707182934
130,kitahiroshima,42.9758,141.5672,-4.11,71,10,2.07,JP,1707182935
131,alice springs,-23.7,133.8833,29.56,27,1,7.2,AU,1707182935
132,balqash,46.8481,74.995,-14.67,85,100,6.0,KZ,1707182935
133,le treport,50.0598,1.3758,10.0,80,100,9.76,FR,1707182936
134,aitape,-3.1374,142.3475,28.03,84,100,2.39,PG,1707182936
135,saint-philippe,-21.3585,55.7679,21.77,77,72,3.71,RE,1707182937
136,taoudenni,22.6783,-3.9836,18.85,13,100,5.01,ML,1707182937
137,port mathurin,-19.6833,63.4167,26.1,64,93,6.41,MU,1707182938
138,chadan,51.2833,91.5833,-30.19,95,44,0.75,RU,1707182938
139,tamanrasset,22.785,5.5228,8.95,25,0,5.14,DZ,1707182932
140,sorong,-0.8833,131.25,27.39,81,100,3.76,ID,1707182939
141,lorengau,-2.0226,147.2712,29.76,73,100,4.97,PG,1707182939
142,uglegorsk,49.0833,142.0333,-11.89,81,6,1.35,RU,1707182940
143,klyuchi,52.2667,79.1667,-9.25,90,92,4.17,RU,1707182940
144,pagar alam,-4.0167,103.2667,22.08,95,100,1.18,ID,1707182941
145,woolgoolga,-30.1106,153.2007,32.25,64,53,6.1,AU,1707182941
146,kerur,16.0167,75.5667,22.6,50,0,2.82,IN,1707182942
147,sunderland,54.9047,-1.3822,11.38,87,100,9.89,GB,1707182942
148,nuku'alofa,-21.1333,-175.2,26.37,76,100,8.63,TO,1707182942
149,polyarnyy,69.1989,33.4478,-19.2,100,100,3.84,RU,1707182943
150,chonchi,-42.6128,-73.8092,16.56,81,100,0.93,CL,1707182943
151,crane,31.3974,-102.3501,12.55,44,7,0.91,US,1707182944
152,bay minette,30.883,-87.773,10.78,78,100,3.47,US,1707182945
153,vorgashor,67.5833,63.95,-24.01,97,92,2.8,RU,1707182945
154,valdivia,-39.8142,-73.2459,19.05,95,100,0.75,CL,1707182945
155,tromso,69.6496,18.957,-8.99,79,75,1.03,NO,1707182776
156,faya-largeau,17.9257,19.1043,16.41,26,30,10.87,TD,1707182946
157,labasa,-16.4167,179.3833,29.27,78,100,0.51,FJ,1707182946
158,las heras,-46.5419,-68.9359,21.24,22,34,8.89,AR,1707182947
159,petropavlovsk-kamchatsky,53.0452,158.6483,-7.53,74,75,2.68,RU,1707182947
160,jalna,19.8333,75.8833,20.14,55,0,3.16,IN,1707182948
161,beloyarskiy,63.7119,66.6722,-17.22,97,100,2.68,RU,1707182948
162,nova sintra,14.8667,-24.7167,20.97,68,0,7.53,CV,1707182948
163,fort st. john,56.2499,-120.8529,-7.06,73,75,3.09,CA,1707182949
164,thorpe hamlet,52.6303,1.3134,11.21,77,100,7.2,GB,1707182949
165,borovichi,58.3878,33.9155,-7.77,99,100,1.34,RU,1707182950
166,itapetininga,-23.5917,-48.0531,21.49,82,84,2.39,BR,1707182950
167,olonkinbyen,70.9221,-8.7187,-1.66,70,77,6.86,SJ,1707182951
168,bredasdorp,-34.5322,20.0403,21.11,81,100,1.49,ZA,1707182951
169,bubaque,11.2833,-15.8333,26.35,73,0,3.61,GW,1707182952
170,charters towers,-20.1,146.2667,31.61,55,5,2.46,AU,1707182812
171,el granada,37.5027,-122.4694,13.94,80,75,2.57,US,1707182952
172,new norfolk,-42.7826,147.0587,19.95,32,65,3.44,AU,1707182953
173,berezovyy,51.6667,135.7,-16.21,74,2,0.55,RU,1707182953
174,puquio,-14.7,-74.1333,12.08,85,96,1.82,PE,1707182953
175,sitka,57.0531,-135.33,3.94,81,75,0.0,US,1707182954
176,ingeniero jacobacci,-41.3427,-69.5448,19.33,37,93,6.51,AR,1707182954
177,yokadouma,3.5167,15.05,20.51,37,100,0.59,CM,1707182955
178,shingu,33.7333,135.9833,8.62,59,2,3.6,JP,1707182955
179,muisne,0.6,-80.0333,26.22,87,60,2.17,EC,1707182955
180,valparaiso,-33.0393,-71.6273,15.8,94,0,0.0,CL,1707182956
181,keflavik,64.0049,-22.5624,-6.76,73,75,9.26,IS,1707182956
182,qingnian,36.8456,115.7117,-2.33,78,51,1.05,CN,1707182956
183,gadzhiyevo,69.2551,33.3362,-19.91,100,100,3.59,RU,1707182957
184,hithadhoo,-0.6,73.0833,28.12,74,100,3.63,MV,1707182957
185,stanley,54.868,-1.6985,10.43,83,75,10.8,GB,1707182958
186,anadyr,64.75,177.4833,-22.72,77,100,6.0,RU,1707182958
187,talnakh,69.4865,88.3972,-24.83,89,33,2.42,RU,1707182958
188,magong,23.5654,119.5863,17.67,85,100,12.78,TW,1707182960
189,emerald,-23.5333,148.1667,32.41,55,3,2.14,AU,1707182960
190,udachny,66.4167,112.4,-23.64,83,100,1.52,RU,1707182961
191,neiafu,-18.65,-173.9833,27.53,72,26,6.53,TO,1707182961
192,ambodifotatra,-16.9833,49.85,26.08,81,100,1.24,MG,1707182962
193,sisimiut,66.9395,-53.6735,-17.71,72,64,6.43,GL,1707182962
194,tanjung pinang,0.9167,104.45,27.02,80,98,3.17,ID,1707182962
195,candelaria,13.9311,121.4233,27.67,66,9,3.42,PH,1707182963
196,howrah,22.5892,88.3103,20.0,94,75,2.06,IN,1707182963
197,nicoya,10.1483,-85.452,24.3,87,15,2.16,CR,1707182963
198,hamilton,39.1834,-84.5333,4.96,78,0,6.69,US,1707182959
199,merizo village,13.2658,144.6691,28.85,75,99,8.25,GU,1707182964
200,tralee,52.2704,-9.7026,10.23,91,73,6.01,IE,1707182965
201,shenjiamen,29.9576,122.298,3.15,86,100,5.6,CN,1707182965
202,myory,55.6217,27.6299,-2.81,86,99,5.77,BY,1707182965
203,san patricio,28.017,-97.5169,16.92,73,0,3.43,US,1707182966
204,gebeit,21.0667,36.3167,12.45,71,100,1.57,SD,1707182966
205,dila,6.4167,38.3167,16.47,76,7,1.9,ET,1707182966
206,zaozersk,69.4005,32.4476,-19.15,100,100,2.03,RU,1707182967
207,clinton,42.587,-82.9199,2.18,85,100,5.14,US,1707182834
208,zyryanovsk,49.7386,84.2719,-19.04,96,69,0.77,KZ,1707182967
209,vadso,70.0744,29.7487,-8.91,79,40,4.63,NO,1707182968
210,susuman,62.7833,148.1667,-28.9,89,100,1.34,RU,1707182968
211,tongchuanshi,35.0806,109.0897,-1.13,79,100,1.76,CN,1707182968
212,oropesa del mar,40.1,0.15,15.57,52,98,1.17,ES,1707182969
213,joshimath,30.5667,79.5667,-1.84,53,2,3.69,IN,1707182969
214,shaowu,27.3409,117.4831,6.78,95,100,0.89,CN,1707182969
215,colonia,50.9333,6.95,10.54,74,100,7.2,DE,1707182731
216,aldinga beach,-35.2793,138.4604,21.92,43,0,5.23,AU,1707182970
217,sirjan,29.452,55.6814,2.59,26,0,3.31,IR,1707182971
218,cascais,38.6979,-9.4215,15.28,90,100,3.13,PT,1707182971
219,mili,6.0815,171.735,27.45,74,100,6.09,MH,1707182971
220,mhamid,29.82,-5.72,10.39,37,5,2.15,MA,1707182972
221,queenstown,-31.8976,26.8753,17.01,83,0,0.62,ZA,1707182972
222,visakhapatnam,17.69,83.2093,21.94,100,20,1.03,IN,1707182972
223,middle island,40.8843,-72.9373,2.94,53,0,4.63,US,1707182973
224,hermanus,-34.4187,19.2345,21.0,88,100,2.25,ZA,1707182973
225,hancheng,32.5186,112.3522,-0.18,76,98,2.45,CN,1707182974
226,envira,-7.3,-70.2167,22.78,98,13,0.79,BR,1707182974
227,petawawa,45.9001,-77.3328,-4.12,79,0,1.03,CA,1707182752
228,yaren,-0.5472,166.916,28.92,74,68,6.65,NR,1707182975
229,guadalupe y calvo,26.1,-106.9667,10.83,26,78,1.15,MX,1707182975
230,garden city,42.3256,-83.331,2.14,86,100,3.6,US,1707182975
231,daru,-9.0763,143.2092,28.49,80,100,3.57,PG,1707182976
232,ta`u,-14.2336,-169.5144,28.26,75,100,1.86,AS,1707182976
233,dikwa,12.024,13.9165,21.25,33,48,6.29,NG,1707182976
234,darwin,-12.4611,130.8418,32.25,71,20,4.12,AU,1707182775
235,manokwari,-0.8667,134.0833,28.06,74,99,4.35,ID,1707182977
236,port saint john's,-31.6229,29.5448,22.54,92,0,2.63,ZA,1707182977
237,antsohihy,-14.8796,47.9875,23.59,97,89,1.0,MG,1707182978
238,jamestown,42.097,-79.2353,-1.38,87,0,4.12,US,1707182978
239,haiku-pauwela,20.9219,-156.3051,25.01,63,40,10.29,US,1707182979
240,kununurra,-15.7667,128.7333,32.99,62,5,4.12,AU,1707182979
241,tres palos,18.1833,-101.6167,22.22,84,5,1.88,MX,1707182980
242,krasnyy chikoy,50.3643,108.7512,-23.31,99,69,0.78,RU,1707182980
243,weno,7.4515,151.8468,29.97,62,40,6.17,FM,1707182980
244,trairi,-3.2778,-39.2689,27.44,78,69,5.22,BR,1707182931
245,habra,22.8344,88.6275,19.94,68,0,2.68,IN,1707182981
246,tangalle,6.024,80.7911,24.09,88,99,4.35,LK,1707182982
247,jiangyou,31.7667,104.7167,5.7,68,94,0.61,CN,1707182983
248,tianchang,37.9981,114.0156,-0.32,72,12,0.94,CN,1707182983
249,bandarbeyla,9.4942,50.8122,24.75,79,4,4.51,SO,1707182983
250,chibougamau,49.9168,-74.3659,-13.21,85,0,2.57,CA,1707182984
251,elizabethton,36.3487,-82.2107,11.87,46,0,1.82,US,1707182984
252,brookings,44.3114,-96.7984,2.29,87,0,3.6,US,1707182984
253,flin flon,54.7682,-101.865,-3.42,96,100,3.96,CA,1707182985
254,kerikeri,-35.2268,173.9474,23.86,55,35,3.71,NZ,1707182985
255,salinopolis,-0.6136,-47.3561,26.53,88,38,5.4,BR,1707182986
256,lone grove,34.1754,-97.2628,10.73,60,0,2.06,US,1707182986
257,sao jose da coroa grande,-8.8978,-35.1478,26.27,82,16,2.29,BR,1707182986
258,dunedin,-45.8742,170.5036,19.58,63,100,1.12,NZ,1707182987
259,kudymkar,59.0173,54.656,-16.49,100,97,1.44,RU,1707182987
260,crailsheim,49.1344,10.0719,6.32,91,98,7.1,DE,1707182987
261,harstad,68.799,16.5293,-2.14,94,99,4.92,NO,1707182943
262,touros,-5.1989,-35.4608,27.43,78,72,5.37,BR,1707182988
263,barcelos,41.5388,-8.6151,11.58,88,100,0.95,PT,1707182989
264,santa isabel,-23.3156,-46.2214,22.84,87,99,0.57,BR,1707182980
265,namioka,40.7072,140.5894,2.4,60,75,3.09,JP,1707182990
266,pirot,43.1531,22.5861,5.81,44,44,0.59,RS,1707182990
267,pimentel,-6.8367,-79.9342,27.16,65,75,4.63,PE,1707182991
268,port lincoln,-34.7333,135.8667,18.84,50,0,5.36,AU,1707182991
269,luchegorsk,46.4764,134.2569,-20.26,98,98,2.08,RU,1707182991
270,la passe,45.5549,-0.8967,7.21,87,100,2.6,FR,1707182992
271,haapsalu,58.9431,23.5414,-1.72,79,100,6.86,EE,1707182993
272,amla,21.9333,78.1167,16.51,66,4,1.29,IN,1707182993
273,dwarka,22.2394,68.9678,22.14,75,0,2.54,IN,1707182993
274,nizhneudinsk,54.9076,99.0276,-10.78,90,95,1.79,RU,1707182994
275,quebo,11.3333,-14.9333,21.77,88,0,0.64,GW,1707182994
276,san sebastian de la gomera,28.0916,-17.1133,20.2,24,0,2.06,ES,1707182995
277,samfya,-11.3649,29.5565,19.17,95,100,1.12,ZM,1707182995
278,orangeville,43.9168,-80.0997,-2.1,86,15,2.47,CA,1707182995
279,aasiaat,68.7098,-52.8699,-29.72,87,69,3.77,GL,1707182996
280,santana,-0.0583,-51.1817,28.1,83,40,3.09,BR,1707182996
281,ibirama,-27.0569,-49.5178,21.18,97,100,0.47,BR,1707182997
282,geraldton,-28.7667,114.6,30.23,19,31,12.35,AU,1707182997
283,nema,57.5067,50.5011,-15.35,99,100,1.94,RU,1707182998
284,sinabang,2.4803,96.3801,27.21,80,73,1.26,ID,1707182998
285,bahia de caraquez,-0.6,-80.4167,28.1,87,27,2.69,EC,1707182999
286,monywa,22.1167,95.1333,17.93,60,0,2.72,MM,1707182999
287,tofol,5.3248,163.0078,29.88,70,75,5.66,FM,1707182999
288,shumikha,55.2261,63.2961,-6.7,94,84,4.39,RU,1707183000
289,asyut,27.181,31.1837,11.1,60,0,3.26,EG,1707183000
290,cabo san lucas,22.8909,-109.9124,25.61,51,20,5.14,MX,1707182768
291,kirensk,57.7853,108.1119,-7.24,94,100,4.47,RU,1707183001
292,hermiston,45.8404,-119.2895,12.75,87,75,2.06,US,1707182958
293,izumo,35.3667,132.7667,5.97,81,75,1.54,JP,1707183001
294,kapuskasing,49.4169,-82.4331,-2.95,93,100,4.12,CA,1707182988
295,baker city,44.7749,-117.8344,7.84,57,40,4.12,US,1707183003
296,bharatpur,27.2167,77.4833,10.08,72,75,2.47,IN,1707183003
297,goz beida,13.95,20.55,18.6,16,32,4.36,TD,1707182776
298,cobija,-11.0267,-68.7692,24.21,79,6,1.31,BO,1707183005
299,constantia,44.1833,28.65,8.38,78,75,7.38,RO,1707182764
300,san rafael del sur,11.8485,-86.4384,27.54,84,23,3.18,NI,1707183006
301,tsarevo,42.1667,27.85,11.3,59,7,3.92,BG,1707183006
302,qarazhal,48.0078,70.7903,-7.57,87,100,7.72,KZ,1707183007
303,cartagena,10.3997,-75.5144,28.79,74,20,1.54,CO,1707182811
304,shahrak,34.1074,64.3052,-10.11,71,0,2.65,AF,1707183008
305,pangkalanbuun,-2.6833,111.6167,28.82,74,100,1.95,ID,1707183009
306,lebu,-37.6167,-73.65,16.1,95,99,2.47,CL,1707183009
307,priozersk,61.0393,30.1291,-5.51,80,100,3.91,RU,1707183010
308,west odessa,31.8424,-102.4988,12.7,48,0,2.57,US,1707183010
309,mutsu,41.2894,141.2169,-0.77,58,100,3.93,JP,1707183010
310,ola,59.5833,151.2833,-18.57,73,100,4.52,RU,1707183011
311,puerto colombia,10.9878,-74.9547,26.05,85,59,3.11,CO,1707183011
312,plastun,44.7561,136.2939,-5.48,43,73,1.57,RU,1707183012
313,brezina,33.0989,1.2608,5.83,50,100,0.84,DZ,1707183012
314,constanza,47.6603,9.1758,7.42,93,81,0.89,DE,1707183012
315,mossel bay,-34.1831,22.146,20.52,83,43,1.21,ZA,1707183013
316,meizhou,24.2977,116.1072,15.81,84,100,0.7,CN,1707183023
317,kayangel,8.0823,134.7173,27.57,83,100,9.22,PW,1707183024
318,obidos,-1.9175,-55.5181,27.26,69,92,1.38,BR,1707183024
319,yakeshi,49.2833,120.7333,-21.8,93,18,1.65,CN,1707183024
320,totness,5.8833,-56.3167,26.47,84,88,6.43,SR,1707183025
321,lima,-12.0432,-77.0282,26.14,65,40,5.14,PE,1707182943
322,le morne-rouge,14.7667,-61.1333,23.49,85,16,5.94,MQ,1707183030
323,papao,-17.75,-149.55,25.82,86,100,10.48,PF,1707183030
324,pisco,-13.7,-76.2167,25.03,83,0,5.66,PE,1707183031
325,san borja,-14.8167,-66.85,25.26,82,100,1.97,BO,1707183031
326,prachuap khiri khan,12.2167,99.75,28.23,38,67,0.88,TH,1707183032
327,murzuq,25.9155,13.9184,9.56,49,1,3.51,LY,1707183032
328,shahecheng,36.9383,114.5058,0.16,66,29,1.22,CN,1707183032
329,saudarkrokur,65.7461,-19.6394,-6.24,92,100,8.28,IS,1707183040
330,santarem,-2.4431,-54.7083,28.07,89,0,2.57,BR,1707183041
331,dryden,49.7833,-92.7503,0.16,93,100,3.6,CA,1707183042
332,kurchatov,51.6601,35.6521,-2.77,91,63,5.61,RU,1707183043
333,wanning,18.8003,110.3967,24.55,82,12,3.56,CN,1707183043
334,cao bang,22.6667,106.25,17.35,96,100,1.42,VN,1707183044
335,zhanaozen,43.3,52.8,2.17,91,100,4.24,KZ,1707183044
336,orange cove,36.6244,-119.3137,14.02,87,75,0.0,US,1707183045
337,kenai,60.5544,-151.2583,-4.92,90,100,5.66,US,1707183046
338,tamandare,-8.7597,-35.1047,26.1,81,46,1.87,BR,1707183046
339,tozeur,33.9197,8.1335,10.22,57,0,2.57,TN,1707183047
340,canon city,38.441,-105.2424,7.09,67,0,1.54,US,1707183048
341,pacasmayo,-7.4006,-79.5714,25.47,75,73,5.02,PE,1707183049
342,juba,4.8517,31.5825,23.89,53,3,1.67,SS,1707183050
343,runing,33.0011,114.3542,-2.55,89,100,1.38,CN,1707183051
344,kidal,18.4411,1.4078,15.89,18,100,6.88,ML,1707183052
345,egilsstadir,65.2653,-14.3948,-8.05,62,0,3.09,IS,1707183053
346,dellys,36.9172,3.9131,15.26,51,90,4.72,DZ,1707183054
347,otyniya,48.7377,24.8611,9.25,66,98,10.4,UA,1707183054
348,urangan,-25.3,152.9,30.02,63,13,2.88,AU,1707183055
349,timimoun,29.2639,0.231,10.21,53,0,5.14,DZ,1707183055
350,la'ie,21.6477,-157.9253,26.98,64,35,4.47,US,1707183056
351,altai,46.3722,96.2583,-19.84,58,39,0.56,MN,1707183057
352,vale de cambra,40.8497,-8.3939,10.38,86,100,0.91,PT,1707183057
353,lupiro,-8.3833,36.6667,22.35,98,100,1.41,TZ,1707183058
354,at-bashi,41.1702,75.8106,-13.83,75,100,1.11,KG,1707183058
355,sucre,-19.0333,-65.2627,15.06,63,79,1.18,BO,1707183059
356,dalnegorsk,44.5604,135.5701,-8.0,64,94,1.79,RU,1707183059
357,yankton,42.8711,-97.3973,3.14,87,0,2.57,US,1707182826
358,gaiman,-43.2897,-65.4929,26.32,32,66,6.3,AR,1707183060
359,babayurt,43.6002,46.7789,3.14,76,100,2.13,RU,1707183060
360,sampit,-2.5333,112.95,28.19,83,98,1.54,ID,1707183061
361,christchurch,-43.5333,172.6333,30.3,29,92,3.6,NZ,1707182963
362,iskateley,67.6803,53.1512,-18.88,97,100,1.79,RU,1707183062
363,yermakovskoye,53.2831,92.4003,-16.32,95,22,1.41,RU,1707183063
364,jaru,-10.4389,-62.4664,23.61,94,99,1.51,BR,1707183063
365,chernyshevskiy,63.0128,112.4714,-17.34,98,100,0.45,RU,1707183063
366,tolanaro,-25.0319,46.9987,24.04,88,75,5.14,MG,1707183064
367,gwadar,25.1216,62.3254,21.16,53,100,5.28,PK,1707183065
368,xique xique,-10.8217,-42.7311,26.02,65,96,4.03,BR,1707183065
369,boves,44.332,7.5514,8.13,55,91,0.98,IT,1707183065
370,malvan,16.0667,73.4667,24.9,54,0,2.6,IN,1707183066
371,lerwick,60.1545,-1.1494,4.0,98,100,6.05,GB,1707183066
372,braidwood,41.265,-88.2123,2.13,86,8,3.2,US,1707182810
373,puerto aysen,-45.4,-72.7,14.01,85,100,1.86,CL,1707183067
374,porto novo,6.4965,2.6036,25.9,61,6,1.7,BJ,1707183067
375,cuyo,10.8525,121.0086,26.23,85,83,8.78,PH,1707183069
376,karkira,36.9292,6.5856,13.93,55,4,3.36,DZ,1707183069
377,port douglas,-16.4833,145.4667,30.87,66,26,2.11,AU,1707183070
378,ugoofaaru,5.6667,73.0,27.96,74,74,6.49,MV,1707183070
379,villa gesell,-37.2639,-56.973,22.25,78,81,7.57,AR,1707183070
380,haifa,32.8156,34.9892,13.49,81,56,4.66,IL,1707183071
381,mamuju,-2.6748,118.8885,29.28,68,100,1.36,ID,1707183071
382,mazagao,-0.115,-51.2894,28.03,84,40,2.78,BR,1707183072
383,as sulayyil,20.4607,45.5779,16.14,40,91,3.26,SA,1707183072
384,balurghat,25.2167,88.7667,16.78,77,99,1.56,IN,1707182948
385,kingscliff,-28.2667,153.5667,32.63,66,22,4.12,AU,1707182822
386,lazaro cardenas,17.9583,-102.2,24.04,80,0,0.38,MX,1707183073
387,mersing,2.4312,103.8405,25.95,89,40,1.54,MY,1707183074
388,ciudad lazaro cardenas,17.9583,-102.2,24.04,80,0,0.38,MX,1707183074
389,pasuquin,18.3328,120.6177,26.97,89,20,2.06,PH,1707183074
390,cidreira,-30.1811,-50.2056,23.94,89,95,5.14,BR,1707183075
391,tver,56.8619,35.8931,-5.95,93,99,2.24,RU,1707183075
392,rumbek,6.802,29.6912,24.58,26,5,1.77,SS,1707183076
393,kazincbarcika,48.25,20.6333,9.08,64,100,6.31,HU,1707183076
394,whakatane,-37.9585,176.9854,26.05,75,0,2.24,NZ,1707183076
395,kayyerkan,69.3786,87.7439,-24.72,92,36,2.45,RU,1707183077
396,chunskiy,56.0815,99.6342,-11.85,97,100,1.3,RU,1707183077
397,abu jibeha,11.4562,31.2285,19.93,19,9,4.45,SD,1707183077
398,khadan khak,30.7477,67.7085,0.77,46,0,1.47,PK,1707183078
399,saipan,15.1355,145.701,29.39,58,40,8.23,MP,1707183078
400,jiaozuo,35.2397,113.2331,-0.55,81,100,1.06,CN,1707183079
401,tazacorte,28.629,-17.9293,20.08,22,0,3.6,ES,1707183079
402,arraias,-12.9288,-46.9437,20.13,95,100,2.05,BR,1707183080
403,batroun,34.2553,35.6581,12.01,69,36,3.74,LB,1707183080
404,tahara,34.6667,137.2667,8.97,63,4,8.91,JP,1707183081
405,kuta,-8.7233,115.1723,28.97,79,40,4.63,ID,1707183081
406,paola,39.3599,16.0396,18.62,84,23,1.04,IT,1707183082
407,bandon,51.7469,-8.7425,10.77,94,61,8.87,IE,1707183082
408,isiro,2.7739,27.616,16.57,79,12,1.35,CD,1707183083
409,ulsteinvik,62.3432,5.8487,-0.14,87,55,1.34,NO,1707183083
410,ambovombe,-25.1667,46.0833,22.3,92,69,1.76,MG,1707183084
411,saint-pierre,-21.3393,55.4781,21.82,68,0,3.6,RE,1707182976
412,viveiro,43.6623,-7.5934,10.6,77,91,1.57,ES,1707183085
413,bathinda,30.2,74.95,6.77,60,0,1.92,IN,1707183085
414,port alfred,-33.5906,26.891,18.99,98,67,1.79,ZA,1707183086
415,dudinka,69.4058,86.1778,-25.18,97,64,1.79,RU,1707183086
416,al bawiti,28.3492,28.8659,10.37,69,0,2.48,EG,1707183087
417,kuanda,56.3161,116.0806,-21.11,89,100,0.35,RU,1707183087
418,castillos,-34.1667,-53.8333,20.04,73,90,4.2,UY,1707183088
419,boguchany,58.3814,97.4531,-11.71,98,100,1.39,RU,1707183088
420,mil'kovo,55.6078,37.7956,-3.27,96,99,2.97,RU,1707183089
421,opuwo,-18.0607,13.84,21.6,83,100,1.63,NA,1707183089
422,gaspe,48.8334,-64.4819,-2.88,86,100,3.6,CA,1707183063
423,'ali sabieh,11.1558,42.7125,22.07,82,1,1.73,DJ,1707183090
424,kyshtovka,56.555,76.6271,-3.7,92,98,6.26,RU,1707183090
425,zheleznodorozhnyy,55.7503,38.0042,-3.25,97,99,2.08,RU,1707183091
426,guayaramerin,-10.8368,-65.3614,24.09,81,31,1.21,BO,1707183091
427,makoua,0.0069,15.6333,23.24,87,100,1.46,CG,1707183092
428,cabedelo,-6.9811,-34.8339,28.37,80,20,4.23,BR,1707183092
429,saynshand,44.8824,110.1163,-19.76,87,6,1.6,MN,1707183092
430,fortuna,40.5982,-124.1573,9.81,97,75,0.0,US,1707183093
431,vernon,50.2581,-119.2691,2.01,89,100,0.51,CA,1707183093
432,el alto,-4.2714,-81.2147,24.81,86,54,4.25,PE,1707183093
433,acarau,-2.8856,-40.12,27.3,80,53,6.46,BR,1707183094
434,yurimaguas,-5.9,-76.0833,24.65,82,17,1.16,PE,1707183094
435,tarko-sale,64.9225,77.785,-18.53,94,100,6.8,RU,1707183095
436,verkhnevilyuysk,63.4453,120.3167,-29.39,100,99,0.7,RU,1707183095
437,straldzha,42.6,26.6833,14.02,50,100,7.68,BG,1707183096
438,massakory,12.996,15.7293,19.69,18,94,7.3,TD,1707183096
439,magadan,59.5667,150.8,-17.82,70,100,3.62,RU,1707183096
440,patos,-7.0244,-37.28,26.8,56,29,4.14,BR,1707183097
441,manicore,-5.8092,-61.3003,24.46,92,54,0.97,BR,1707183097
442,barranca,-10.75,-77.7667,24.64,76,97,2.55,PE,1707183098
443,male,4.1748,73.5089,27.97,83,40,6.69,MV,1707183072
444,pontevedra,42.431,-8.6444,11.75,86,99,0.87,ES,1707183098
445,jinghong,21.991,100.7341,20.68,42,2,0.42,CN,1707183099
446,khovd,48.0056,91.6419,-20.5,91,23,0.74,MN,1707183100
447,kambove,-10.8764,26.5969,16.84,97,100,1.11,CD,1707183100
448,codrington,-38.2667,141.9667,18.96,44,0,5.89,AU,1707183101
449,nagqu,31.5,92.0,-7.65,13,91,7.96,CN,1707183101
450,manay,7.215,126.5397,26.16,80,100,1.33,PH,1707183101
451,colac,-38.3333,143.5833,19.54,32,8,4.28,AU,1707183102
452,ilebo,-4.3167,20.5833,21.41,95,88,0.74,CD,1707183102
453,freeport,40.6576,-73.5832,3.43,45,0,7.2,US,1707182898
454,yangjiang,21.85,111.9667,19.13,80,100,3.83,CN,1707183103
455,beau vallon,-20.4189,57.6953,22.9,88,20,1.54,MU,1707183103
456,oum hadjer,13.2954,19.6966,19.61,19,91,4.76,TD,1707183103
457,mombasa,-4.0547,39.6636,26.28,89,100,2.52,KE,1707183104
458,vershino-darasunskiy,52.35,115.5167,-17.99,81,19,0.89,RU,1707183104
459,igarka,67.4667,86.5833,-25.45,97,73,3.0,RU,1707183104
460,borogontsy,62.6683,131.1683,-33.11,97,63,0.54,RU,1707183105
461,noosa heads,-26.3833,153.15,30.74,67,47,2.9,AU,1707183059
462,qamdo,31.1667,97.2333,-6.47,38,62,3.96,CN,1707183106
463,ust'-ilimsk,58.0006,102.6619,-7.65,81,100,4.02,RU,1707183106
464,borova,50.1763,30.1043,2.94,75,100,4.99,UA,1707183106
465,curillo,1.0333,-75.9191,22.46,98,100,1.41,CO,1707183107
466,los alamos,35.8881,-106.307,6.31,53,20,3.09,US,1707183107
467,alofi,-19.0595,-169.9187,29.94,66,40,5.66,NU,1707183107
468,kujama,10.4542,7.6368,17.31,20,7,5.28,NG,1707183108
469,pointe michel,15.25,-61.3833,25.16,83,14,7.2,DM,1707183108
470,pervari,37.9357,42.5493,-1.81,95,93,0.71,TR,1707183108
471,portland,45.5234,-122.6762,9.69,94,100,4.63,US,1707183008
472,atlantis,-33.5667,18.4834,19.81,86,72,1.28,ZA,1707183109
473,maracas,-13.4411,-40.4308,18.23,97,55,2.24,BR,1707183109
474,bel ombre,-4.6167,55.4167,27.91,78,20,2.06,SC,1707183110
475,ozd,48.2167,20.3,8.62,66,100,5.43,HU,1707183110
476,maputo,-25.9653,32.5892,23.03,89,81,2.28,MZ,1707183110
477,melfort,52.8667,-104.6177,-1.93,86,83,4.12,CA,1707183111
478,zag,46.9441,99.165,-27.01,85,96,1.13,MN,1707183111
479,kindu,-2.95,25.95,20.51,98,100,0.7,CD,1707183112
480,marengo,42.2486,-88.6084,1.17,90,100,2.83,US,1707183112
481,baiti,13.745,-14.7482,25.69,13,0,2.78,SN,1707183112
482,hanceville,34.0607,-86.7675,10.65,77,0,3.12,US,1707183113
483,luza,60.6308,47.2512,-25.31,99,100,1.44,RU,1707183113
484,baihe,22.15,107.2333,15.17,90,100,1.96,CN,1707183113
485,san antonio de pale,-1.4014,5.6325,27.69,76,100,1.66,GQ,1707183114
486,torbeyevo,54.0797,43.2473,-6.89,97,94,4.82,RU,1707183114
487,ouadda,8.0777,22.4007,20.76,22,76,3.01,CF,1707183114
488,umm kaddadah,13.6017,26.6876,15.17,16,10,8.26,SD,1707183115
489,progreso,21.2833,-89.6667,20.06,68,100,10.31,MX,1707183115
490,chaykovskiy,56.7686,54.1148,-4.01,95,100,3.68,RU,1707183115
491,pudozh,61.8099,36.5345,-21.7,98,95,2.68,RU,1707183116
492,arkhangel'sk,64.5401,40.5433,-24.93,75,0,1.0,RU,1707183116
493,phan rang-thap cham,11.5667,108.9833,28.72,57,17,2.26,VN,1707183116
494,tak,16.5833,98.8333,15.99,74,1,1.27,TH,1707183117
495,hassi messaoud,31.6804,6.0729,6.92,61,0,1.03,DZ,1707183117
496,rosarito,32.3333,-117.0333,14.71,88,100,5.36,MX,1707183118
497,nova xavantina,-14.6667,-52.35,21.73,99,100,0.99,BR,1707183118
498,coahuayana de hidalgo,18.7,-103.6583,23.03,91,11,1.2,MX,1707183118
499,oranjestad,12.524,-70.027,28.28,89,20,2.06,AW,1707183118
500,saldanha,-33.0117,17.9442,19.03,97,51,0.48,ZA,1707183119
501,walvis bay,-22.9575,14.5053,18.53,94,94,1.03,NA,1707183119
502,prado,-17.3411,-39.2208,25.15,90,72,2.67,BR,1707183121
503,batticaloa,7.7102,81.6924,26.44,70,57,3.84,LK,1707183121
504,san felipe,10.3399,-68.7425,24.48,85,98,1.9,VE,1707183122
505,am timan,11.0297,20.2827,22.3,23,4,2.64,TD,1707183122
506,kavieng,-2.5744,150.7967,28.46,78,76,3.42,PG,1707183123
507,ruayer,43.0537,-5.5502,5.34,88,99,0.8,ES,1707183124
508,vilyuchinsk,52.9306,158.4028,-6.71,69,74,2.68,RU,1707183124
509,vilyuysk,63.7553,121.6247,-38.33,100,95,1.34,RU,1707183125
510,carbonear,47.7332,-53.2148,1.81,97,100,9.65,CA,1707183125
511,n'zeto,-7.2312,12.8666,26.84,84,98,1.14,AO,1707183125
512,bahia de kino,28.8333,-111.9333,24.84,43,100,1.32,MX,1707183126
513,ust-tsilma,65.441,52.1498,-33.55,100,100,0.45,RU,1707183126
514,santanyi,39.3546,3.1291,11.19,77,100,2.81,ES,1707183126
515,kimbe,-5.5502,150.1429,30.34,71,39,2.66,PG,1707183127
516,upington,-28.4478,21.2561,22.21,30,0,2.57,ZA,1707183063
517,rio gallegos,-51.6226,-69.2181,15.03,38,0,4.12,AR,1707183128
518,goure,13.9835,10.2704,15.5,19,2,7.14,NE,1707183128
519,kristiansund,63.1115,7.732,-2.64,93,100,2.06,NO,1707183129
520,den burg,53.0542,4.7972,9.42,89,100,10.8,NL,1707183126
521,yallahs,17.8748,-76.5624,26.55,87,57,6.19,JM,1707183129
522,brandfort,-28.7001,26.4597,16.67,25,0,2.43,ZA,1707183130
523,lugazi,0.3772,32.9197,17.4,89,13,0.34,UG,1707183130
524,fort mcmurray,56.7268,-111.381,-11.23,79,20,5.14,CA,1707183131
525,zavodoukovsk,56.5042,66.5515,0.48,86,100,6.03,RU,1707182945
526,frontera,26.9333,-101.45,18.51,29,0,1.34,MX,1707183022
527,buka,40.8108,69.1986,5.69,37,100,2.53,UZ,1707183132
528,sao felix do xingu,-6.6447,-51.995,23.07,95,100,0.72,BR,1707183133
529,gorontalo,0.5412,123.0595,31.56,58,100,1.23,ID,1707183133
530,arvayheer,46.2639,102.775,-16.74,81,88,1.93,MN,1707183134
531,balabac,7.9868,117.0645,27.73,72,56,5.53,PH,1707183134
532,smirnykh,49.75,142.8333,-10.55,71,8,1.98,RU,1707183134
533,bom jesus da lapa,-13.255,-43.4181,23.36,76,100,1.38,BR,1707183135
534,luderitz,-26.6481,15.1594,17.95,90,21,0.98,NA,1707183135
535,colachel,8.1667,77.25,23.29,77,59,3.28,IN,1707183135
536,ciutadella,40.0011,3.8414,12.45,78,100,3.14,ES,1707183136
537,siloam springs,36.1881,-94.5405,10.46,68,0,3.6,US,1707182906
538,bigastro,38.0624,-0.8984,13.13,45,100,1.99,ES,1707183137
539,pavlodar,52.3,76.95,-12.11,85,0,7.0,KZ,1707183138
540,north syracuse,43.1348,-76.1299,-0.57,64,0,4.12,US,1707183138
541,shimoda,34.6667,138.95,6.2,96,100,5.87,JP,1707183138
542,katsuura,35.1333,140.3,5.38,95,100,8.15,JP,1707183139
543,dzuunmod,48.2199,97.3744,-20.91,68,100,2.13,MN,1707183139
544,ghadamis,30.1337,9.5007,11.43,49,0,2.98,LY,1707183140
545,cape canaveral,28.4058,-80.6048,16.04,87,100,6.69,US,1707183140
546,lesnikovo,55.2822,65.3175,0.44,89,60,5.26,RU,1707183141
547,bariri,-22.0744,-48.7403,29.14,66,98,1.77,BR,1707183141
548,thinadhoo,0.5333,72.9333,28.3,74,27,4.11,MV,1707183142
549,alexandria,31.2156,29.9553,12.3,67,0,4.21,EG,1707183142
550,guapo,-16.8306,-49.5319,20.21,98,100,1.35,BR,1707183143
551,huntington,38.4193,-82.4452,7.96,75,0,0.89,US,1707182948
552,tyuratam,45.6507,63.3156,-1.29,86,100,4.9,KZ,1707183143
553,magdagachi,53.45,125.8,-16.46,74,4,2.38,RU,1707183144
554,hirara,24.8,125.2833,18.92,77,75,6.17,JP,1707183144
555,kalevala,65.2,31.1667,-19.11,100,96,2.29,RU,1707183145
556,usogorsk,63.4106,48.6872,-20.19,97,100,1.98,RU,1707183145
557,karatau,43.1667,70.4667,1.56,62,100,2.89,KZ,1707183145
558,siwa oasis,29.2041,25.5195,11.92,65,0,2.29,EG,1707183054
559,mejit,10.2753,170.8646,26.83,80,17,8.04,MH,1707183146
560,sulejow,51.3544,19.8854,8.43,79,100,9.63,PL,1707183146
